stop_id,stop_name,stop_lat,stop_lon,location_type,parent_station
"1","STAZIONE CENTRALE","44.5057657540716","11.3431758861234","0",""
"2","STAZIONE CENTRALE","44.5051437387807","11.3425587570757","0",""
"3","STAZIONE CENTRALE","44.5054481242236","11.3437929450212","0",""
"4","STAZIONE CENTRALE","44.5050434605776","11.3431131337897","0",""
"5","STAZIONE CENTRALE","44.5056830840234","11.3436946425275","0",""
"6","STAZIONE CENTRALE","44.5049284438364","11.3437823251683","0",""
"7","STAZIONE CENTRALE","44.5057169730481","11.3428932332151","0",""
"8","STAZIONE CENTRALE","44.5048679385747","11.3446463347838","0",""
"9","STAZIONE CENTRALE","44.505355911506","11.3427482589637","0",""
"10","PORTA GALLIERA","44.504442805503","11.3463873021933","0",""
"11","PORTA GALLIERA","44.5044916053095","11.3472431107419","0",""
"12","BORGO","44.5027643481261","11.3511747845062","0",""
"13","BORGO","44.5030056467908","11.3512607573037","0",""
"14","PORTA MASCARELLA","44.5017753042119","11.3537357520579","0",""
"16","STAZIONE CENTRALE","44.5050055317498","11.3433710605056","0",""
"17","PORTA MASCARELLA","44.5017885975379","11.3545099054418","0",""
"18","PORTA SAN DONATO","44.4975665024616","11.3565222255276","0",""
"19","PORTA SAN DONATO","44.4991210806506","11.3566611395566","0",""
"20","PORTA SAN VITALE","44.4945177714622","11.3568875493628","0",""
"21","FILOPANTI","44.4954611840074","11.3570865662504","0",""
"22","PORTA MAGGIORE","44.4918803672872","11.3571268212073","0",""
"25","PORTA SAN VITALE","44.4928546744668","11.3573773853465","0",""
"26","CARDUCCI","44.486665196658","11.3577627166476","0",""
"27","PORTA MAGGIORE","44.4909643215097","11.3576349589959","0",""
"28","PORTA SANTO STEFANO","44.4846745334121","11.3552538496983","0",""
"29","CARDUCCI","44.4882289810779","11.357919276376","0",""
"30","GIARDINI MARGHERITA","44.4850051906145","11.3523975732665","0",""
"33","PORTA SANTO STEFANO","44.4849877115543","11.3571182063509","0",""
"34","PORTA CASTIGLIONE","44.4853735574837","11.3493187819457","0",""
"35","GIARDINI MARGHERITA","44.4847837336521","11.3523863168212","0",""
"36","PARCHEGGIO STAVECO","44.4860235980339","11.3438909409933","0",""
"37","PORTA CASTIGLIONE","44.4851154332401","11.3490113309456","0",""
"38","PORTA SAN MAMOLO","44.4870325609366","11.338261170979","0",""
"41","PARCHEGGIO STAVECO","44.4856700753936","11.3450227364912","0",""
"42","ALDINI","44.4885637050794","11.3342955906073","0",""
"43","PORTA SAN MAMOLO","44.486128195836","11.3408502190719","0",""
"44","PORTA SARAGOZZA - VILLA CASSARINI","44.4900992700493","11.3303818712204","0",""
"45","PETRARCA","44.4876724482921","11.3358359768523","0",""
"46","PORTA SARAGOZZA - LICEO RIGHI","44.4921816018684","11.3293384078223","0",""
"47","PORTA SARAGOZZA - VILLA CASSARINI","44.4897365841235","11.330260520842","0",""
"49","ALDINI","44.4885714951193","11.3336120768819","0",""
"50","PORTA SANT`ISAIA","44.4955339070651","11.3282919652535","0",""
"51","PORTA SARAGOZZA - LICEO RIGHI","44.4915316110523","11.329178879122","0",""
"52","PORTA SAN FELICE","44.4998163593369","11.32812442628","0",""
"53","PORTA SANT`ISAIA","44.4934653814858","11.3284941793112","0",""
"54","PORTA LAME","44.5017573151947","11.3319951060074","0",""
"57","PORTA SANT`ISAIA","44.4953355791177","11.3279468215186","0",""
"59","VICINI","44.4965456428938","11.3275437669673","0",""
"61","PORTA SAN FELICE","44.4984158362911","11.3269963538121","0",""
"65","SILVANI","44.5005411700662","11.3289473283478","0",""
"67","PORTA LAME","44.5029411954924","11.3336996634339","0",""
"100","PIAZZA MAGGIORE","44.4943691956065","11.3436722957927","0",""
"104","RIZZOLI","44.4945724347408","11.3449487847084","0",""
"105","RIZZOLI","44.4944553164964","11.3449162757739","0",""
"108","PIAZZA MAGGIORE","44.4937305107566","11.3437202760882","0",""
"109","RIZZOLI","44.494300393018","11.3459970829369","0",""
"110","BORGONUOVO","44.4910740744436","11.3499659191215","0",""
"111","STRADA MAGGIORE","44.4927036861207","11.3502593697618","0",""
"112","PIAZZA GALVANI","44.4921457058788","11.3432715957715","0",""
"113","GARGANELLI","44.4905552260707","11.3507342638836","0",""
"114","PIAZZA GALVANI","44.4920567709719","11.343355279763","0",""
"117","TORLEONE","44.4908901593476","11.3550403542152","0",""
"201","PIAZZA ALDROVANDI","44.4933830019462","11.3517259823771","0",""
"202","DUE TORRI","44.4945302108478","11.3478471115666","0",""
"204","SAN VITALE","44.4943144839795","11.3509749900367","0",""
"206","PORTA SAN VITALE","44.4941142547941","11.3553384040815","0",""
"208","PIAZZA DI PORTA RAVEGNANA","44.4944531368463","11.3466971056041","0",""
"210","CONSERVATORIO","44.4950851271655","11.3492081364196","0",""
"301","SFERISTERIO","44.5004490750246","11.3472066105227","0",""
"302","SFERISTERIO","44.5006911579879","11.3467344048929","0",""
"303","IRNERIO","44.4997927951625","11.3497879872702","0",""
"304","IRNERIO","44.4999964845405","11.3495414527393","0",""
"305","PORTA SAN DONATO","44.4984299931684","11.3551411701376","0",""
"306","PORTA SAN DONATO","44.4989178087137","11.353777958277","0",""
"331","RIGHI","44.4989834929829","11.3445982572087","0",""
"332","RIGHI","44.4991578970897","11.3444896907136","0",""
"333","OBERDAN","44.4983438142836","11.3463202289155","0",""
"334","MOLINE","44.4985288961188","11.3467600398671","0",""
"335","PIAZZA SAN MARTINO","44.4970296725949","11.3466920126074","0",""
"336","TEATRO COMUNALE","44.4965375555909","11.3501280776445","0",""
"339","TEATRO COMUNALE","44.4960902341736","11.3502374525403","0",""
"352","DON MINZONI - MAMBO","44.5029409507025","11.3365449651673","0",""
"353","BOVI CAMPEGGI QUESTURA","44.5053510265914","11.3353801502441","0",""
"354","BOVI CAMPEGGI QUESTURA","44.5055181143898","11.3352437279432","0",""
"355","BOVI CAMPEGGI","44.5057832577512","11.3322925166486","0",""
"356","BOVI CAMPEGGI","44.5060079710044","11.331869029213","0",""
"397","INDIPENDENZA MILLE","44.5023491164131","11.3447182874602","0",""
"399","AUTOSTAZIONE","44.5031275882158","11.3450868001819","0",""
"400","SAN PIETRO","44.4956621136356","11.3427615877643","0",""
"401","SAN PIETRO","44.4953618171143","11.3428360300461","0",""
"402","INDIPENDENZA","44.4966336901203","11.3430151298377","0",""
"403","INDIPENDENZA","44.4971700577469","11.3433369114635","0",""
"404","VIII AGOSTO","44.5002912122433","11.3440728600235","0",""
"405","VIII AGOSTO","44.500582236344","11.3443408221911","0",""
"407","AUTOSTAZIONE","44.5033098552907","11.3451428440245","0",""
"408","ARENA DEL SOLE","44.4993335029787","11.3438017622882","0",""
"410","AUTOSTAZIONE","44.5042532403172","11.345207430428","0",""
"411","AUTOSTAZIONE","44.5041529972745","11.3453213310647","0",""
"413","AUTOSTAZIONE","44.5043336461188","11.3453741920706","0",""
"449","PIAZZA DEI MARTIRI","44.5018393608117","11.3404130646495","0",""
"451","MARCONI","44.4969257549424","11.3376889824555","0",""
"452","MARCONI","44.4970604963598","11.3374836849275","0",""
"455","MARCONI","44.4980009857423","11.3381840070263","0",""
"458","MILLE INDIPENDENZA","44.5014362051516","11.3437453282366","0",""
"459","PIAZZA DEI MARTIRI","44.5008379295753","11.3395018867745","0",""
"462","PIAZZA DEI MARTIRI","44.5002609085635","11.338994514376","0",""
"463","MILLE","44.5015178223649","11.3426471360167","0",""
"465","MILLE (PIAZZA DEI MARTIRI)","44.5017598990506","11.341406781863","0",""
"466","MILLE","44.5019165294631","11.3413139931801","0",""
"469","AMENDOLA","44.503033166367","11.3404757972662","0",""
"470","AMENDOLA","44.5030216447454","11.3402693353538","0",""
"471","STAZIONE CENTRALE","44.5047880398989","11.3446187633158","0",""
"472","STAZIONE CENTRALE","44.5054834874028","11.3417957096957","0",""
"473","MILLE","44.5013820673515","11.3432855817625","0",""
"474","STAZIONE CENTRALE","44.5051864574572","11.3431911994577","0",""
"500","BOLOGNA AUTOSTAZIONE","44.5039837625275","11.3468209530227","0",""
"527","DON MINZONI - MAMBO","44.5029561625376","11.3358843740055","0",""
"598","PIAZZA ROOSEVELT","44.4941028787369","11.3409288427481","0",""
"600","PIAZZA ROOSEVELT","44.4944783247431","11.3402631089877","0",""
"601","UGO BASSI","44.4956474908511","11.3381799868529","0",""
"602","UGO BASSI","44.4952617137606","11.3400761633788","0",""
"604","UGO BASSI","44.4954712920285","11.338471913874","0",""
"605","LAME","44.4969554874152","11.3368686688394","0",""
"607","LAME","44.497148641945","11.3367506059875","0",""
"609","RONDONE","44.499950155834","11.3348248017273","0",""
"612","LAME","44.4964769960353","11.3370223446872","0",""
"613","RIVA RENO","44.4985367646991","11.3344389614964","0",""
"614","RONDONE","44.500160039675","11.3344943345598","0",""
"615","PALASPORT","44.4981991753876","11.3313823067338","0",""
"616","SAN FELICE","44.4974859045367","11.3320621878719","0",""
"617","PORTA SAN FELICE","44.4990586935591","11.3279747634196","0",""
"619","LAME","44.4974842367533","11.3365462619701","0",""
"620","PORTA SAN FELICE","44.4988202757042","11.3282710806239","0",""
"621","LAME","44.4973433959046","11.3366098145858","0",""
"622","MARCONI","44.4978326126839","11.3379065620016","0",""
"701","PIAZZA MALPIGHI","44.494327673307","11.3363006599377","0",""
"702","PIAZZA MALPIGHI","44.4941732509585","11.3364172728594","0",""
"703","PIAZZA SAN FRANCESCO","44.4952327838339","11.3358981565668","0",""
"704","PIAZZA MALPIGHI","44.4937066117216","11.3363222231153","0",""
"705","SANT`ISAIA","44.4940177908548","11.3322760621384","0",""
"706","SANT`ISAIA","44.4939418608581","11.332247086831","0",""
"707","SANT`ISAIA","44.4933482140211","11.3326620485811","0",""
"709","PORTA SANT`ISAIA","44.4945503106171","11.329425668268","0",""
"710","PORTA SANT`ISAIA","44.494379535675","11.3299636383733","0",""
"711","PORTA SARAGOZZA - FRASSINAGO","44.4906302225976","11.330777963436","0",""
"750","FARINI","44.4913272298124","11.3428780110771","0",""
"752","URBANA","44.4900188517606","11.3406655684505","0",""
"753","FARINI","44.4913937567045","11.3422683307397","0",""
"754","COLLEGIO DI SPAGNA","44.4902689213228","11.3368195652882","0",""
"755","COLLEGIO DI SPAGNA","44.4904475035705","11.3373750448484","0",""
"756","NOSADELLA","44.489997657892","11.333841110489","0",""
"758","D`AZEGLIO","44.4904402077467","11.3413552842558","0",""
"759","NOSADELLA","44.4901055866852","11.3341763461291","0",""
"760","PORTA SARAGOZZA - FRASSINAGO","44.4902541640872","11.3310082235157","0",""
"761","PORTA SARAGOZZA - FRASSINAGO","44.4903737912033","11.3312118663008","0",""
"799","PIAZZA CAVOUR","44.4911380953236","11.3436494084598","0",""
"800","PIAZZA CAVOUR","44.4909827348135","11.3436526159185","0",""
"801","PIAZZA CAVOUR","44.4908116972176","11.3436520510135","0",""
"802","PIAZZA CAVOUR","44.490857404919","11.3441938927983","0",""
"803","TRIBUNALE","44.4882271748656","11.3436899816823","0",""
"804","TRIBUNALE","44.487941664561","11.3442499663514","0",""
"805","XII GIUGNO","44.4857542029411","11.3469800592932","0",""
"806","XII GIUGNO","44.486361110632","11.3457853440705","0",""
"807","PIAZZA CAVOUR","44.4906625518747","11.3439282598029","0",""
"809","PIAZZA CAVOUR","44.4906438199961","11.3441004396043","0",""
"811","PIAZZA CAVOUR","44.4910375181768","11.3441908990591","0",""
"852","CARBONESI","44.491356234423","11.3405587322874","0",""
"854","SAN PROCOLO","44.4894984898751","11.3407429933021","0",""
"855","SAN LUIGI PORTA SAN MAMOLO","44.4879902952184","11.3396301656664","0",""
"856","SAN LUIGI PORTA SAN MAMOLO","44.4872163370322","11.3396998191477","0",""
"897","PIAZZA MINGHETTI","44.4914667205311","11.3454288436924","0",""
"902","PIAZZA MINGHETTI","44.4915676549264","11.3457190170089","0",""
"903","PIAZZA MINGHETTI","44.4914485173476","11.3471904690509","0",""
"904","PIAZZA MINGHETTI","44.4915695041157","11.3451908588863","0",""
"905","GARGANELLI","44.4897524074418","11.3504834941819","0",""
"906","GARGANELLI","44.4896444767064","11.3507794094763","0",""
"909","FONDAZZA","44.4869197428306","11.3539349576484","0",""
"910","FONDAZZA","44.487096036265","11.3540355793021","0",""
"911","BARACCANO","44.4855267992865","11.3549344713453","0",""
"912","BARACCANO","44.4860180984749","11.3544661455621","0",""
"951","CARTOLERIA","44.4898128008817","11.3492447635044","0",""
"952","GARGANELLI","44.4894239539745","11.3496842645726","0",""
"953","CESTELLO","44.4879166167451","11.3478779806935","0",""
"954","RIALTO","44.4875084527322","11.3487096917284","0",""
"1002","PORTA MAGGIORE","44.4898849255005","11.3581903991573","0",""
"1003","PORTA MAGGIORE","44.489668939213","11.3582956726598","0",""
"2000","PORTA SAN VITALE (VIA MASSARENTI)","44.4939068221671","11.3581088890339","0",""
"5001","PORTA LAME","44.5031532372209","11.3330154772519","0",""
"5002","PORTA LAME","44.5031789926447","11.3328018742318","0",""
"5003","BOVI CAMPEGGI","44.5056213370464","11.3314604825202","0",""
"5004","BOVI CAMPEGGI","44.5054874408907","11.3313490055232","0",""
"5199","PORTA LAME","44.5025523828224","11.3314977060583","0",""
"5201","PARMEGGIANI","44.503604238817","11.3334132258209","0",""
"5202","PARMEGGIANI","44.5034286231062","11.3334164313238","0",""
"5203","CASARINI","44.5040174483432","11.3306488244285","0",""
"5204","CASARINI","44.5039680651617","11.3301185112516","0",""
"5206","SCALO","44.5024992327117","11.3278711713393","0",""
"5208","TANARI","44.5062349528848","11.3290467762621","0",""
"5209","PORTA SAN FELICE","44.4998243486802","11.3266286542484","0",""
"5211","SCALO","44.5023304276684","11.3275955682818","0",""
"5213","TANARI","44.5062414624395","11.3302995376639","0",""
"5214","TANARI","44.5057132441029","11.3294112541689","0",""
"7001","PORTA SARAGOZZA - RISORGIMENTO","44.4905179456975","11.3283391113364","0",""
"7002","PORTA SARAGOZZA - RISORGIMENTO","44.4903603428347","11.3282589496347","0",""
"7101","ANDREA COSTA","44.4950067683526","11.3264118308818","0",""
"7301","AUDINOT","44.4917018377294","11.3273706472968","0",""
"8002","PORTA CASTIGLIONE","44.4845413829601","11.3483068433986","0",""
"8021","CODIVILLA","44.4844686846827","11.3399003935368","0",""
"8028","CODIVILLA","44.4843874243454","11.3398570530496","0",""
"8101","ANNUNZIATA","44.4848039621945","11.3393274704809","0",""
"8102","ANNUNZIATA","44.4849362776501","11.3394876038595","0",""
"900002","SANT`ISAIA PIAZZA MALPIGHI (provvisoria)","44.4934454449288","11.3351994858253","0",""
